[
  {
    "companyId": "7d71841f-4725-416a-b86e-778a6e0c0e66",
    "previewImageUrl": "https://i.imgur.com/oNoFdVa.png",
    "name": "維特健靈 Vita Green",
    "tags": [
      "medicine"
    ],
    "addresses": [
      {
        "address": "大埔工業村大喜街18號",
        "latitude": 22.317118,
        "longitude": 114.265613
      }
    ]
  },
  {
    "name": "一芳台灣水果茶",
    "companyId": "f8f3cf7b-daa6-442b-9629-e5c7f1b591da",
    "previewImageUrl": "https://i.imgur.com/oNoFdVa.png",
    "tags": [
      "drinks"
    ],
    "addresses": [
      {
        "address": "荃灣楊屋道1號荃新天地一期UG52A號舖",
        "latitude": 22.369687,
        "longitude": 114.113714
      },
      {
        "address": "旺角亞皆老街8號朗豪坊4樓20號舖",
        "latitude": 22.318089,
        "longitude": 114.168659
      },
      {
        "address": "尖沙咀彌敦道132號美麗華廣場一期1樓109A號舖",
        "latitude": 22.300982,
        "longitude": 114.172184
      },
      {
        "address": "黃大仙龍翔道136號黃大仙中心北館地下G05A及G05B號舖",
        "latitude": 22.341997,
        "longitude": 114.192918
      },
      {
        "address": "深水埗欽州街96號地下",
        "latitude": 22.332708,
        "longitude": 114.162115
      },
      {
        "address": "觀塘觀塘道418號創紀之城五期apm4樓L4-26號舖",
        "latitude": 22.312719,
        "longitude": 114.225222
      },
      {
        "address": "尖沙咀加連威老道100號港晶中心地下58號鋪",
        "latitude": 22.300968,
        "longitude": 114.178542
      },
      {
        "address": "樂富聯合道198號樂富廣場3樓3127號舖",
        "latitude": 22.338598,
        "longitude": 114.18673
      },
      {
        "address": "紅磡黃埔天地聚寶坊(第11期)地庫一層11號舖",
        "latitude": 22.306188,
        "longitude": 114.190282
      },
      {
        "address": "觀塘偉業街180號Two Habour Square地下3號舖",
        "latitude": 22.309911,
        "longitude": 114.221195
      },
      {
        "address": "沙田沙田正街18號新城市廣場1樓158號舖",
        "latitude": 22.382318,
        "longitude": 114.188351
      },
      {
        "address": "屯門屯隆街3號屯門市廣場一期3樓3219-3221號舖",
        "latitude": 22.393275,
        "longitude": 113.977876
      },
      {
        "address": "上水龍琛路39號上水廣場5樓506號舖",
        "latitude": 22.50332,
        "longitude": 114.127818
      },
      {
        "address": "將軍澳重華路8號東港城2樓259C店舖",
        "latitude": 22.316501,
        "longitude": 114.26578
      },
      {
        "address": "元朗教育路1號元朗千色匯地下32號舖",
        "latitude": 22.442738,
        "longitude": 114.028439
      },
      {
        "address": "大埔安邦路9號大埔超級城B區2樓265號舖",
        "latitude": 22.452674,
        "longitude": 114.168932
      },
      {
        "address": "葵芳興芳路223號新都會廣場2樓266號舖",
        "latitude": 22.357464,
        "longitude": 114.12717
      },
      {
        "address": "馬鞍山西沙路608號馬鞍山廣場2樓216號舖",
        "latitude": 22.425511,
        "longitude": 114.231333
      },
      {
        "address": "青衣青敬路33號青衣城一期1地下G10號舖",
        "latitude": 22.35945,
        "longitude": 114.108227
      },
      {
        "address": "葵涌葵昌路72-76號活@KCC 3樓311號舖",
        "latitude": 22.362519,
        "longitude": 114.132453
      },
      {
        "address": "深水埗深旺道28號V Walk 2樓L2-108號舖",
        "latitude": 22.327317,
        "longitude": 114.154
      },
      {
        "address": "銅鑼灣記利佐治街11-19號Fashion Walk 1樓17號舖",
        "latitude": 22.280958,
        "longitude": 114.185221
      },
      {
        "address": "中環德輔道中173號Nan Fung Place地下G3號舖",
        "latitude": 22.285997,
        "longitude": 114.154342
      },
      {
        "address": "鰂魚涌海光街13-15號地下23B號舖",
        "latitude": 22.287799,
        "longitude": 114.211004
      },
      {
        "address": "灣仔軒尼詩道292號地舖",
        "latitude": 22.277963,
        "longitude": 114.177357
      },
      {
        "address": "上環干諾道中168-200號信德中心2樓202號舖",
        "latitude": 22.287954,
        "longitude": 114.151822
      },
      {
        "address": "北角北角邨里1號北角匯地下G22號舖",
        "latitude": 22.292822,
        "longitude": 114.199324
      },
      {
        "address": "太古太古城道18號太古城中心2樓202號舖",
        "latitude": 22.28665,
        "longitude": 114.217527
      },
      {
        "address": "灣仔港灣道28號Brim 28灣景中心1樓7號舖",
        "latitude": 22.280172,
        "longitude": 114.176203
      }
    ]
  },
  {
    "companyId": "ff57dde6-c791-486a-8e17-8a1fcee9c434",
    "previewImageUrl": "https://i.imgur.com/0juwxso.jpg",
    "name": "日牛涮涮鍋專門店",
    "tags": [
      "restaurant"
    ],
    "addresses": [
      {
        "address": "坑口東港城第一層 197A 號舖",
        "latitude": 22.317118,
        "longitude": 114.265613
      },
      {
        "address": "旺角朗豪坊 13 樓 6 號舖",
        "latitude": 22.318074,
        "longitude": 114.169024
      },
      {
        "address": "新蒲崗 Mikiki 一樓 111 號舖",
        "latitude": 22.333864,
        "longitude": 114.196946
      },
      {
        "address": "沙田置富第一城 1 樓 104-105 號舖",
        "latitude": 22.386587,
        "longitude": 114.203313
      },
      {
        "address": "寶琳新都城中心 2 期 2 樓",
        "latitude": 22.323069,
        "longitude": 114.258455
      },
      {
        "address": "柴灣杏花新城 2 樓 209 號舖",
        "latitude": 22.276973,
        "longitude": 114.239957
      },
      {
        "address": "坑口東港城第一層",
        "latitude": 22.317038,
        "longitude": 114.266225
      }
    ]
  }
]